Linea_finanziamento|REGIONE|PROVINCIA|COMUNE|COD_COMUNE|FONTE|Data_aggiornamento_lavori|Data_inizio|Data_fine|ENTE_RICHIEDENTE|TIPOLOGIA_ENTE_RICHIEDENTE|CODICE_EDIFICIO|COD_PRINC|COD_MPI|NOME_SCUOLA|OGGETTO_INTERVENTO|INFO_AGGIUNTIVE|CENTRO_COMUNE|LATITUDINE|LONGITUDINE|TIPO_INTERVENTO|STATO LAVORI|Codice progetto|Importo totale opera|Finanziamento/ Provvedimento
Fondo Kyoto - D.L. 91/2014|Piemonte|Torino|Avigliana|001013|Ministero dell`Ambiente e della Tutela del Territorio e del Mare|2017-05-30|||Avigliana|COMUNE||TOCF020004|TOCF020004||||No|45.085147|7.395118|Intervento complesso di efficientamento energetico, bonifica ambientale e adeguamento sismico scuola  La Fabrica|Dato in raccolta||0,0000|1685481,6000
Fondo Kyoto - D.L. 91/2014|Piemonte|Torino|Balangero|001016|Ministero dell`Ambiente e della Tutela del Territorio e del Mare|2017-05-30|||Balangero|COMUNE|0010160003|TOIC829003|TOMM829036|I.C. BALANGERO - X MARTIRI|||No|45.272162|7.521249|Lavori di riqualificazione energetica del complesso scolastico adibito a scuola media di piazza sandro pertini|Start||0,0000|390000,0000
Fondo Kyoto - D.L. 91/2014|Piemonte|Torino|Buriasco|001041|Ministero dell`Ambiente e della Tutela del Territorio e del Mare|2017-05-30|||Buriasco|COMUNE||TOIC8BN00Q|TOMM8BN01R|I.C. PINEROLO IV - BURIASCO|||No|44.875851|7.412610|PALESTRA SCOLASTISCA COMUNALE - Progetto di riqualificazione energetica di edificio ad uso palestra|Dato in raccolta||0,0000|311107,3400
Fondo Kyoto - D.L. 91/2014|Piemonte|Torino|Carmagnola|001059|Ministero dell`Ambiente e della Tutela del Territorio e del Mare|2017-05-30|||Carmagnola|COMUNE|0010590016|TOIC8AN005|TOMM8AN016|I.C. CARMAGNOLA I - PRIMO LEVI|||No|44.847514|7.717534|Scuola Media  Primo Levi  di C so Sacchirone n  47 - Intervento di riqualificazione energetica|Dato in raccolta||0,0000|663400,0000
Fondo Kyoto - D.L. 91/2014|Piemonte|Torino|Carmagnola|001059|Ministero dell`Ambiente e della Tutela del Territorio e del Mare|2017-05-30|||Carmagnola|COMUNE|||||||No|44.847676|7.720647|Scuola Materna  Ex Sant`Anna  di via donizetti n  2 - Intervento di riqualificazione energetica|Dato in raccolta||0,0000|318000,0000
Fondo Kyoto - D.L. 91/2014|Piemonte|Torino|Castellamonte|001066|Ministero dell`Ambiente e della Tutela del Territorio e del Mare|2017-05-30|||Castellamonte|COMUNE||TOMM292009|TOMM292009|CASTELLAMONTE - CRESTO|||No|45.378772|7.710304|Media Cresco|Cantiere aperto|J24H15000620004|0,0000|310975,2600
Fondo Kyoto - D.L. 91/2014|Piemonte|Torino|Salassa|001231|Ministero dell`Ambiente e della Tutela del Territorio e del Mare|2017-05-30|||Salassa|COMUNE||TOIC865006|TOEE86505C|SCUOLA PRIMARIA - SALASSA|||No|45.359663|7.689169|Riqualificazione energetica Primaria Piazza Umberto I|Concluso|H51E15000460001|0,0000|115349,5000
Fondo Kyoto - D.L. 91/2014|Piemonte|Vercelli|Vercelli|002158|Ministero dell`Ambiente e della Tutela del Territorio e del Mare|2017-05-30|||Vercelli|COMUNE|0021580002|VCIC809001|VCAA80902V|VERCELLI CONCORDIA|||No|45.318986|8.403171|Riqualificazione energetica ed ampliamento della scuola dell`infanzia  Concordia|Dato in raccolta||0,0000|750000,0000
Fondo Kyoto - D.L. 91/2014|Piemonte|Novara|Cressa|003055|Ministero dell`Ambiente e della Tutela del Territorio e del Mare|2017-05-30|||Cressa|COMUNE|||||||Si|45.648771|8.508501|Miglioramento dell`efficienza energetica della scuola|Dato in raccolta||0,0000|285000,0000
Fondo Kyoto - D.L. 91/2014|Piemonte|Cuneo|Bra|004029|Ministero dell`Ambiente e della Tutela del Territorio e del Mare|2017-05-30|||Bra|COMUNE|0040290009|CNEE06400X|CNAA06404V|BRA-VIA OSPEDALE|||No|44.703179|7.849342|Lavori di manutenzione straordinaria finalizzata alla messa in sicurezza e alla riqualificazione energetica della scuola dell`infanzia di Via Ospedale  G  Rodari|Start|G76J16001600004|0,0000|205000,0000
Fondo Kyoto - D.L. 91/2014|Piemonte|Cuneo|Bra|004029|Ministero dell`Ambiente e della Tutela del Territorio e del Mare|2017-05-30|||Bra|COMUNE|0040290032|CNEE06400X|CNEE064066|BRA - FRAZ. S. MICHELE|||Si|44.706709|7.853964|Scuola primaria S Michele|Start||0,0000|350000,0000
Fondo Kyoto - D.L. 91/2014|Piemonte|Cuneo|Cavallermaggiore|004059|Ministero dell`Ambiente e della Tutela del Territorio e del Mare|2017-05-30|||Cavallermaggiore|COMUNE|0040590001|CNIC838009|CNEE83802C|CAVALLERMAGGIORE - CAPOLUOGO|||No|44.708400|7.684370|Lavori di manutenzione straordinaria della Scuola Elementare del capoluogo mediante riqualificazione energetica del sistema edificio-impianto e abbattimento barriere architettoniche|Cantiere aperto|G14H14000720004|0,0000|250000,0000
Fondo Kyoto - D.L. 91/2014|Piemonte|Cuneo|Cortemilia|004073|Ministero dell`Ambiente e della Tutela del Territorio e del Mare|2017-05-30|||Cortemilia|COMUNE||CNIC81600C|CNEE81603L|CORTEMILIA - CAPOLUOGO|||No|44.583575|8.190617|Riqualificazione energetica materna e elementare|Concluso|H69D15000550005|0,0000|200000,0000
Fondo Kyoto - D.L. 91/2014|Piemonte|Asti|Asti|005005|Ministero dell`Ambiente e della Tutela del Territorio e del Mare|2017-05-30|||Asti|COMUNE|0050050015|ATEE00500R|ATEE00502V|RIO CROSIO - ASTI|||No|44.907762|8.190494|Riqualificazione energetica e miglioramento sicurezza della scuola primaria  Rio Crosio|Dato in raccolta||0,0000|2000000,0000
Fondo Kyoto - D.L. 91/2014|Piemonte|Asti|Asti|005005|Ministero dell`Ambiente e della Tutela del Territorio e del Mare|2017-05-30|||Asti|COMUNE||ATIC817001|ATEE817024|`BAUSSANO` ASTI|||No|44.894439|8.197834|LAVORI DI RIQUALIFICAZIONE ENERGETICA, MIGLIORAMENTO DELLA SICUREZZA E ABBATTIMENTO DELLE BARRIERE ARCHITETTONICHE DELLA SCUOLA E O  BAUSSANO|Start||0,0000|1630000,0000
Fondo Kyoto - D.L. 91/2014|Piemonte|Asti|Asti|005005|Ministero dell`Ambiente e della Tutela del Territorio e del Mare|2017-05-30|||Asti|COMUNE|0050050024|ATEE00500R|ATEE00501T|BUONARROTI - ASTI|||No|44.907169|8.197703|Riqualificazione energetica e messa in sicurezza della scuola elementare M  Buonarroti|Start||0,0000|1194000,0000
Fondo Kyoto - D.L. 91/2014|Piemonte|Alessandria|Valenza|006177|Ministero dell`Ambiente e della Tutela del Territorio e del Mare|2017-05-30|||Valenza|COMUNE||ALEE037007|ALEE03704B|"7 FRATELLI CERVI"- VALENZA|||No|45.013279|8.639099|Opere manutenzione straordinaria Primaria 7 Fratelli Cervi|Start|J66J16000960005|0,0000|560000,0000
Fondo Kyoto - D.L. 91/2014|Liguria|Imperia|Taggia|008059|Ministero dell`Ambiente e della Tutela del Territorio e del Mare|2017-05-30|||Taggia|COMUNE|0080590141|IMIC805008|IMMM80502A|Sec. I° - G. Ruffini|||No|43.864641|7.852986|Lavori di manutenzione straordinaria per l`adeguamento sismico ed energetico dell`edificio scolastico G B  Soleri|Dato in raccolta||0,0000|1998458,7000
Fondo Kyoto - D.L. 91/2014|Liguria|Genova|Casarza Ligure|010011|Ministero dell`Ambiente e della Tutela del Territorio e del Mare|2017-05-30|||Casarza Ligure|COMUNE|0100110221|GEIC810008|GEEE81001A|S.EL. - U.FRACCHIA -|||No|44.272737|9.448943|Efficientamento Scuola Primaria - Istituto comprensivo  F  De Andre|Start||0,0000|162000,0000
Fondo Kyoto - D.L. 91/2014|Liguria|Genova|Casarza Ligure|010011|Ministero dell`Ambiente e della Tutela del Territorio e del Mare|2017-05-30|||Casarza Ligure|COMUNE|0100110366|GEIC810008|GEMM81002A|Sec. I° - Virgilio|||No|44.273449|9.449331|Efficientamento Scuola Secondaria - Istituto comprensivo  F  De Andre|Start||0,0000|271000,0000
Fondo Kyoto - D.L. 91/2014|Liguria|Genova|Casella|010012|Ministero dell`Ambiente e della Tutela del Territorio e del Mare|2017-05-30|||Casella|COMUNE||GEIC82000V|GEMM82001X|Sec. I° - Caterina Fieschi Adorno|||No|44.534172|8.996052|Progetto di efficientamento del Palasport della Scuola Secondaria I C Fieschi Adorno|Dato in raccolta||0,0000|272265,0000
Fondo Kyoto - D.L. 91/2014|Lombardia|Milano|Corsico|015093|Ministero dell`Ambiente e della Tutela del Territorio e del Mare|2017-05-30|||Evolve srl per Corsico|COMUNE|0150930047|MIIC887003|MIAA88701X|Infanzia - Via Parini|||No|45.429647|9.112806|Riqualificazione energetica e gestione degli impianti per la scuola materna Parini|Dato in raccolta||0,0000|179080,0000
Fondo Kyoto - D.L. 91/2014|Lombardia|Milano|Gaggiano|015103|Ministero dell`Ambiente e della Tutela del Territorio e del Mare|2017-05-30|||Evolve srl per Gaggiano|COMUNE|0151031241|MIIC874001|MIMM874012|Sec. I - Bramante|||No|45.404487|9.038942|Riqualificazione energetica e gestione degli impianti per la scuola media Bramante|Dato in raccolta||0,0000|257400,0000
Fondo Kyoto - D.L. 91/2014|Lombardia|Milano|Motta Visconti|015151|Ministero dell`Ambiente e della Tutela del Territorio e del Mare|2017-05-30|||Evolve srl per Motta Visconti|COMUNE|||||||No|45.287537|8.990062|Riqualificazione energetica e gestione degli impianti per l`Asilo nido  carica dei 101|Dato in raccolta||0,0000|83400,0000
Fondo Kyoto - D.L. 91/2014|Lombardia|Bergamo|Camerata Cornello|016048|Ministero dell`Ambiente e della Tutela del Territorio e del Mare|2017-05-30|||Camerata Cornello|COMUNE|0160480061|BGIC86900V|BGEE869011|SC. PRIMARIA CAMERATA CORNELLO|||No|45.901075|9.654795|Progetto di riqualificazione energetica Scuole dell`Infanzia e Primaria di Camerata Cornello di proprieta comunale adibite all`istruzione scolastica|Start|G74H17000440004|0,0000|100000,0000
Fondo Kyoto - D.L. 91/2014|Lombardia|Brescia|Palazzolo sull`Oglio|017133|Ministero dell`Ambiente e della Tutela del Territorio e del Mare|2017-05-30|||Palazzolo sull`Oglio|COMUNE|0171330582|BSIC8AM007|BSMM8AM018|SEC. DI I GRADO "E. FERMI"|||No|45.597619|9.887398|Isolamento termico facciate e copertura Scuola secondaria primo grado  E Fermi|Concluso|J41B13000660004|0,0000|355000,0000
Fondo Kyoto - D.L. 91/2014|Lombardia|Cremona|Annicco|019003|Ministero dell`Ambiente e della Tutela del Territorio e del Mare|2017-05-30|||Annicco|COMUNE|0190030200|CRIC80000P|CREE80002T|Primaria - Annicco|||No|45.245352|9.883346|Ristrutturazione importante di secondo livello|Start|J45I16000050009|0,0000|417844,0000
Fondo Kyoto - D.L. 91/2014|Lombardia|Cremona|Cremona|019036|Ministero dell`Ambiente e della Tutela del Territorio e del Mare|2017-05-30|||Provincia di Cremona|PROVINCIA|0190360271|CRIS00600T|CRRC00601R|IPSCT - Luigi Einaudi|||No|45.138391|10.010550|Riqualificazione energetica dell`IPC Einaudi|Dato in raccolta||0,0000|1500000,0000
Fondo Kyoto - D.L. 91/2014|Trentino-Alto Adige/Südtirol|Trento|Avio|022007|Ministero dell`Ambiente e della Tutela del Territorio e del Mare|2017-05-30|||Avio|COMUNE||TNIC84700X|TNEE847012||||No|45.737413|10.945186|Lavori di efficientamento energetico scuola elementare di Avio|Dato in raccolta||0,0000|442414,6100
Fondo Kyoto - D.L. 91/2014|Trentino-Alto Adige/Südtirol|Trento|Avio|022007|Ministero dell`Ambiente e della Tutela del Territorio e del Mare|2017-05-30|||Avio|COMUNE||TNIC84700X|TNEE847023||||No|45.740055|10.953146|Lavori di efficientamento energetico scuola elementare di Avio  Sabbionara|Dato in raccolta||0,0000|146868,3500
Fondo Kyoto - D.L. 91/2014|Trentino-Alto Adige/Südtirol|Trento|Vallelaghi|022248|Ministero dell`Ambiente e della Tutela del Territorio e del Mare|2017-05-30|||Vallelaghi|COMUNE|||||||Si|46.079303|10.999029|Riqualificazione energetica scuola materna P ED 375 c c  Terlago|Dato in raccolta||0,0000|135574,0500
Fondo Kyoto - D.L. 91/2014|Veneto|Verona|Castel d`Azzano|023021|Ministero dell`Ambiente e della Tutela del Territorio e del Mare|2017-05-30|||Castel d` Azzano|COMUNE|0230211397|VRIC85900V|VREE859011|Primaria - Dante Alighieri|||No|45.358097|10.945417|Efficientamento Energetico primaria Alighieri|Dato in raccolta||0,0000|400000,0000
Fondo Kyoto - D.L. 91/2014|Veneto|Vicenza|Cassola|024026|Ministero dell`Ambiente e della Tutela del Territorio e del Mare|2017-05-30|||Cassola|COMUNE|0240263369|VIIC85800P|VIMM85801Q|SC. SEC.  I GR.  "G.MARCONI "|||No|45.756938|11.763739|Efficientamento energetico della scuola media  G  Marconi  di San Giuseppe tramite interventi sull`involucro|Dato in raccolta|B35I16000080006|0,0000|1150000,0000
Fondo Kyoto - D.L. 91/2014|Veneto|Vicenza|Mussolente|024070|Ministero dell`Ambiente e della Tutela del Territorio e del Mare|2017-05-30|||Mussolente|COMUNE|0240703361|VIIC80700T|VIEE80701X|MUSSOLENTE|||No|45.781730|11.802189|Progetto riqualificazione energetica della scuola primaria  TEN  EGER|Start||0,0000|785648,5000
Fondo Kyoto - D.L. 91/2014|Veneto|Treviso|Carbonera|026008|Ministero dell`Ambiente e della Tutela del Territorio e del Mare|2017-05-30|||Carbonera|COMUNE|0260082512|TVIC85600Q|TVMM85601R|SMS"P.DA ZARA"CARBONERA (I.C.)|||No|45.680434|12.289111|Lavori di riqualificazione Sec  I Carbonera|Start|B74H16000790004|0,0000|641690,0000
Fondo Kyoto - D.L. 91/2014|Veneto|Treviso|Roncade|026069|Ministero dell`Ambiente e della Tutela del Territorio e del Mare|2017-05-30|||Roncade|COMUNE|0260691197|TVIC875005|TVEE875039|Marco Polo|||No|45.586402|12.372751|Efficientamento energetico scuola primaria  Marco Polo|Dato in raccolta||0,0000|580000,0000
Fondo Kyoto - D.L. 91/2014|Veneto|Treviso|San Fior|026072|Ministero dell`Ambiente e della Tutela del Territorio e del Mare|2017-05-30|||San Fior|COMUNE|0260721450|TVIC846005|TVMM846016|SMS BAROZZI SAN FIOR ( I.C.)|||No|45.917466|12.354686|Interventi di efficientamento energetico scuola secondaria di I° grado  S  Barozzi di San Fior|Cantiere aperto|E86J16000110004|0,0000|440000,0000
Fondo Kyoto - D.L. 91/2014|Veneto|Venezia|Concordia Sagittaria|027011|Ministero dell`Ambiente e della Tutela del Territorio e del Mare|2017-05-30|||Concordia Sagittaria|COMUNE|0270112690|VEIC818001|VEMM818012|RUFINO TURRANIO|||No|45.753522|12.846672|Scuola media Tufino Turranio|Start||0,0000|147000,0000
Fondo Kyoto - D.L. 91/2014|Veneto|Padova|Sant`Angelo di Piove di Sacco|028082|Ministero dell`Ambiente e della Tutela del Territorio e del Mare|2017-05-30|||Sant`Angelo di Piove di Sacco|COMUNE|0280822772|PDIC82700N|PDAA82701E|Infanzia - Celeseo|||No|45.367972|12.014324|Lavori su Infanzia Falcone ( loc Celeseo)|Dato in raccolta||0,0000|143500,0000
Fondo Kyoto - D.L. 91/2014|Veneto|Padova|Selvazzano Dentro|028086|Ministero dell`Ambiente e della Tutela del Territorio e del Mare|2017-05-30|||Selvazzano Dentro|COMUNE|0280862079|PDIC89700X|PDMM897011|ALBINONI TENCAROLA E CASELLE|||No|45.389710|11.814039|Efficientamento energetico della scuola media T  Albinoni - Tencarola  Sostituzione infissi|Dato in raccolta||0,0000|390000,0000
Fondo Kyoto - D.L. 91/2014|Veneto|Rovigo|Bergantino|029006|Ministero dell`Ambiente e della Tutela del Territorio e del Mare|2017-05-30|||Bergantino|COMUNE|0290061776|ROIC80000E|ROEE80004Q|MANZONI ALESSANDRO - BERGANTINO|||No|45.061527|11.250735|Riqualificazione energetica|Cantiere aperto|E24H15000449996|0,0000|190000,0000
Fondo Kyoto - D.L. 91/2014|Veneto|Rovigo|Rovigo|029041|Ministero dell`Ambiente e della Tutela del Territorio e del Mare|2017-05-30|||Rovigo|COMUNE|0290410557|ROIC82000Q|ROMM82001R|G. BONIFACIO - ROVIGO|||No|45.078023|11.798639|Riqualificazione Scuola Media  Bonifacio|Dato in raccolta||0,0000|1350000,0000
Fondo Kyoto - D.L. 91/2014|Friuli-Venezia Giulia|Udine|Cividale del Friuli|030026|Ministero dell`Ambiente e della Tutela del Territorio e del Mare|2017-05-30|||Cividale dal Friuli|COMUNE||UDIC851001|UDEE851013|A. MANZONI|||No|46.092356|13.428001|Riqualificazione energetica primaria Manzoni|Start||0,0000|609216,6400
Fondo Kyoto - D.L. 91/2014|Emilia-Romagna|Piacenza|Monticelli d`Ongina|033027|Ministero dell`Ambiente e della Tutela del Territorio e del Mare|2017-05-30|||Monticelli d`Ongina|COMUNE|0330270105|PCIC806002|PCAA806031|SAN NAZZARO"|||No|45.076224|9.898402|Intervento di efficientamento energetico dell`asilo nido - scuola materna di S  Nazzaro|Dato in raccolta||0,0000|246000,0000
Fondo Kyoto - D.L. 91/2014|Emilia-Romagna|Parma|Fidenza|034014|Ministero dell`Ambiente e della Tutela del Territorio e del Mare|2017-05-30|||Fidenza|COMUNE|0340140394|PRMM06400X|PRMM06400X|FIDENZA - "ZANI"|||No|44.863999|10.060676|Riqualificazione energetica media Zani|Cantiere aperto|B56J16000650009|0,0000|435000,0000
Fondo Kyoto - D.L. 91/2014|Emilia-Romagna|Parma|Fontevivo|034016|Ministero dell`Ambiente e della Tutela del Territorio e del Mare|2017-05-30|||Fontevivo|COMUNE|0340160128|PRIC813002|PRMM813024|FONTEVIVO - "AUGUSTO CERESINI"|||No|44.856373|10.177517|Riqualificazione energetica scuola primaria e secondaria di primo grado  Ceresini  di Fontevivo|Dato in raccolta||0,0000|800000,0000
Fondo Kyoto - D.L. 91/2014|Emilia-Romagna|Reggio nell`Emilia|Cavriago|035017|Ministero dell`Ambiente e della Tutela del Territorio e del Mare|2017-05-30|||Cavriago|COMUNE|||||||No|44.691278|10.526539|Ristrutturazione e riqualificazione energetica del complesso scolastico Le Betulle|Dato in raccolta||0,0000|500000,0000
Fondo Kyoto - D.L. 91/2014|Emilia-Romagna|Ferrara|Ferrara|038008|Ministero dell`Ambiente e della Tutela del Territorio e del Mare|2017-05-30|||Ferrara|COMUNE|0380080173|FEIC81200Q|FEMM81201R|Sec. I - T. BONATI|||No|44.823698|11.615992|Efficientamento energetico scuola Bonati Pascoli|Dato in raccolta||0,0000|1030000,0000
Fondo Kyoto - D.L. 91/2014|Emilia-Romagna|Ferrara|Ferrara|038008|Ministero dell`Ambiente e della Tutela del Territorio e del Mare|2017-05-30|||Ferrara|COMUNE|0380080102|FEIC80000D|FEEE80001G|"C.DELLA SALA"-PONTELAGOSCURO|||No|44.877868|11.608135|Efficientamento energetico primaria Carmine della Sala|Dato in raccolta||0,0000|1260000,0000
Fondo Kyoto - D.L. 91/2014|Emilia-Romagna|Ferrara|Ferrara|038008|Ministero dell`Ambiente e della Tutela del Territorio e del Mare|2017-05-30|||Ferrara|COMUNE|0380080079|FEIC81300G|FEMM813A1L|Sec. I - De Pisis (succ Porotto)|||No|44.850195|11.553031|Efficientamento energetico scuola Sec I grado Porotto|Start||0,0000|420000,0000
Fondo Kyoto - D.L. 91/2014|Emilia-Romagna|Ravenna|Lugo|039012|Ministero dell`Ambiente e della Tutela del Territorio e del Mare|2017-05-30|||Lugo|COMUNE|0390120147|RAIC81400D|RAEE81401G|"GARIBALDI G." - LUGO|||No|44.417377|11.905237|Efficientamento energetico della scuola primaria Garibaldi ed ampliamento in classe  A|Start||0,0000|162340,3000
Fondo Kyoto - D.L. 91/2014|Emilia-Romagna|Forlì-Cesena|Predappio|040032|Ministero dell`Ambiente e della Tutela del Territorio e del Mare|2017-05-30|||Predappio|COMUNE|0400320080|FOIC813004|FOAA813011|PREDAPPIO PETER PAN|||No|44.107947|11.980801|Lavori di riqualificazione energetica a servizio della Scuola Materna  Peter Pan|Start||0,0000|180000,0000
Fondo Kyoto - D.L. 91/2014|Marche|Pesaro e Urbino|Cantiano|041008|Ministero dell`Ambiente e della Tutela del Territorio e del Mare|2017-05-30|||Cantiano|COMUNE|0410080276|PSIC83500A|PSMM83502C|CANTIANO "LUIGI BARTOLUCCI"|||No|43.473057|12.629476|Istituto Comprensivo Statale  F Michelini Tocci  - Scuola media|Dato in raccolta||0,0000|132230,0000
Fondo Kyoto - D.L. 91/2014|Marche|Pesaro e Urbino|Cantiano|041008|Ministero dell`Ambiente e della Tutela del Territorio e del Mare|2017-05-30|||Cantiano|COMUNE|0410080147|PSIC83500A|PSEE83503E|CAGLI - CANTIANO|||No|43.472519|12.630498|Istituto Comprensivo Statale  F Michelini Tocci  - Scuola elementare e Materna|Start||0,0000|234860,0000
Fondo Kyoto - D.L. 91/2014|Marche|Macerata|Loro Piceno|043022|Ministero dell`Ambiente e della Tutela del Territorio e del Mare|2017-05-30|||Loro Piceno|COMUNE|0430220083|MCIC818004|MCAA818022|CAV. FILIPPO CECCHI|||No|43.164690|13.415027|Ristrotturazione edilizia mediante demolizione e ricostruzione Scuola Maaterna  Cav  Filippo Cecchi|Dato in raccolta||0,0000|500000,0000
Fondo Kyoto - D.L. 91/2014|Marche|Macerata|Petriolo|043036|Ministero dell`Ambiente e della Tutela del Territorio e del Mare|2017-05-30|||Petriolo|COMUNE|0430360152|MCIC81900X|MCEE819023|GIOVANNI GINOBILI|||No|43.221644|13.467276|Riqualificazione energetica Primaria G Ginobili|Dato in raccolta||0,0000|865000,0000
Fondo Kyoto - D.L. 91/2014|Marche|Macerata|Recanati|043044|Ministero dell`Ambiente e della Tutela del Territorio e del Mare|2017-05-30|||Recanati|COMUNE|0430440172|MCIC83200A|MCEE83203E|LORENZO LOTTO|||No|43.399931|13.555991|Riqualificazione energetica e sisimica Primaria via Lorenzo Lotto|Cantiere aperto|H21E15000370004|0,0000|1193000,0000
Fondo Kyoto - D.L. 91/2014|Marche|Macerata|Tolentino|043053|Ministero dell`Ambiente e della Tutela del Territorio e del Mare|2017-05-30|||Tolentino|COMUNE|0430530241|MCIC81500L|MCMM81501N|G.LUCATELLI|||No|43.212818|13.293291|Lavori di efficientamento energetico complesso scolastico G  Lucatelli|Dato in raccolta||0,0000|209961,3000
Fondo Kyoto - D.L. 91/2014|Marche|Ascoli Piceno|San Benedetto del Tronto|044066|Ministero dell`Ambiente e della Tutela del Territorio e del Mare|2017-05-30|||San Benedetto del Tronto|COMUNE|0440660502|APIC833003|APMM833014|SMS"SACCONI/MANZONI"|||No|42.958707|13.876398|Lavori di ristrutturazione via Ferri Sec I grado Manzoni|Dato in raccolta||0,0000|1448136,3000
Fondo Kyoto - D.L. 91/2014|Marche|Ascoli Piceno|San Benedetto del Tronto|044066|Ministero dell`Ambiente e della Tutela del Territorio e del Mare|2017-05-30|||San Benedetto del Tronto|COMUNE|0440660212|APIC833003|APEE833026|NICOLA MISCIA|||No|42.958401|13.876918|Lavori di ristrutturazione via Ferri Infanzia e Primaria N Miscia|Dato in raccolta||0,0000|1629425,3600
Fondo Kyoto - D.L. 91/2014|Marche|Ascoli Piceno|San Benedetto del Tronto|044066|Ministero dell`Ambiente e della Tutela del Territorio e del Mare|2017-05-30|||San Benedetto del Tronto|COMUNE||APIC833003|APMM833014|SMS"SACCONI/MANZONI"|||No|42.958591|13.876760|Lavori di ristrutturazione via Ferri palestra|Dato in raccolta||0,0000|372438,3400
Fondo Kyoto - D.L. 91/2014|Toscana|Lucca|Pescaglia|046022|Ministero dell`Ambiente e della Tutela del Territorio e del Mare|2017-05-30|2017-06-15|2017-10-15|Pescaglia|COMUNE|0460225005|LUIC823001|LUMM823012|Sec. I - Pescaglia|||No|43.965735|10.411531|Efficientamento scuola Secondaria I Grado G  Puccini|Concluso|E26J16000710004|0,0000|144000,0000
Fondo Kyoto - D.L. 91/2014|Toscana|Lucca|Pescaglia|046022|Ministero dell`Ambiente e della Tutela del Territorio e del Mare|2017-05-30|||Pescaglia|COMUNE|0460225010|LUIC823001|LUMM823012|Sec. I - Pescaglia|||No|43.909184|10.438927|Efficientamento Scuola Secondaria I Grado - San Martino in Freddana|Start|E26J16000720004|0,0000|116000,0000
Fondo Kyoto - D.L. 91/2014|Toscana|Firenze|Pontassieve|048033|Ministero dell`Ambiente e della Tutela del Territorio e del Mare|2017-05-30|||Pontassieve|COMUNE|0480330005|FIIC870003|FIEE870037|DON LORENZO MILANI-MONTEBONELLO|||No|43.831462|11.487536|Progetto preliminare plesso Don Milani|Dato in raccolta||0,0000|600000,0000
Fondo Kyoto - D.L. 91/2014|Toscana|Firenze|Sesto Fiorentino|048043|Ministero dell`Ambiente e della Tutela del Territorio e del Mare|2017-05-30|||Sesto Fiorentino|COMUNE|0480430019|FIIC86600B|FIEE86603G|L.LOMBARDO RADICE|||No|43.82729|11.204451|Lavori di manutenzione straordinaria Scuola primaria e dell`infanzia L L Radice|Start||0,0000|664147,0000
Fondo Kyoto - D.L. 91/2014|Toscana|Firenze|Vicchio|048049|Ministero dell`Ambiente e della Tutela del Territorio e del Mare|2017-05-30|||Vicchio|COMUNE|0480490004|FIIC81500E|FIAA81501B|CAPOLUOGO VICCHIO|||No|43.936971|11.460038|Efficientamento Scuola dell`infanzia di Vicchio|Dato in raccolta||0,0000|230000,0000
Fondo Kyoto - D.L. 91/2014|Toscana|Firenze|Vicchio|048049|Ministero dell`Ambiente e della Tutela del Territorio e del Mare|2017-05-30|||Vicchio|COMUNE|0480490001|FIIC81500E|FIAA81502C|"BEATO ANGELICO"-PIAZZANO|||No|43.958437|11.42127|Efficientamento Scuola dell`infanzia di Piazzano|Dato in raccolta||0,0000|61870,0000
Fondo Kyoto - D.L. 91/2014|Toscana|Livorno|Cecina|049007|Ministero dell`Ambiente e della Tutela del Territorio e del Mare|2017-05-30|||Livorno|PROVINCIA|0490070001|LIIS00200N|LITD00201X|CARLO CATTANEO|||No|43.313461|10.518947|Interventi di riqualificazione energetica edificio ISIS Polo - Cattaneo Via Marrucci 55 Cecina (LI)|Dato in raccolta||0,0000|251100,0000
Fondo Kyoto - D.L. 91/2014|Toscana|Livorno|Livorno|049009|Ministero dell`Ambiente e della Tutela del Territorio e del Mare|2017-05-30|||Livorno|PROVINCIA|0490090015|LITF030009|LITF030009|G. GALILEI|||No|43.556083|10.317740|Interventi di riqualificazione energetica edificio 10 dell`Istituto Tecnico Industriale ITI Galilei di Livorno|Dato in raccolta||0,0000|871700,0000
Fondo Kyoto - D.L. 91/2014|Toscana|Livorno|Livorno|049009|Ministero dell`Ambiente e della Tutela del Territorio e del Mare|2017-05-30|||Livorno|PROVINCIA|0490090021|LITF030009|LITF030009|G. GALILEI|||No|43.556378|10.318855|Interventi di riqualificazione energetica edificio 12-13 dell`Istituto Tecnico Industriale ITI Galilei di Livorno|Dato in raccolta||0,0000|1427500,0000
Fondo Kyoto - D.L. 91/2014|Toscana|Livorno|Livorno|049009|Ministero dell`Ambiente e della Tutela del Territorio e del Mare|2017-05-30|||Livorno|PROVINCIA|0490090008|LIIS00800L|LITD00802X|A. VESPUCCI|||No|43.547607|10.302697|Interventi di riqualificazione energetica edificio Istituto di Istruzione Superiore Vespucci - Colombo sede Via Calafati Livorno|Dato in raccolta||0,0000|200860,0000
Fondo Kyoto - D.L. 91/2014|Toscana|Arezzo|Cavriglia|051013|Ministero dell`Ambiente e della Tutela del Territorio e del Mare|2017-05-30|||Cavriglia|COMUNE|0510130004|ARIC81500P|ARMM81501Q|"D. ALIGHIERI" CASTELNUOVO SABB|||No|43.540120|11.451540|Riqualificazione energetica della Scuola Secondaria di I grado di Cavriglia - Istiuto comprensivo  Dante Alighieri|Start||0,0000|750000,0000
Fondo Kyoto - D.L. 91/2014|Toscana|Arezzo|Cavriglia|051013|Ministero dell`Ambiente e della Tutela del Territorio e del Mare|2017-05-30|||Cavriglia|COMUNE|0510130001|ARIC81500P|ARAA81501G|CAVRIGLIA|||No|43.520380|11.486496|Riqualificazione energetica della Scuola dell`Infanzia di Cavriglia - Istituto comprensivo  Dante Alighieri|Start||0,0000|300000,0000
Fondo Kyoto - D.L. 91/2014|Toscana|Siena|Murlo|052019|Ministero dell`Ambiente e della Tutela del Territorio e del Mare|2017-05-30|||Murlo|COMUNE|0520190001|SIIC80800Q|SIMM80802T|MURLO|||No|43.172212|11.396062|Progetto per l`adeguamento dell`edificio scuola secondaria di primo grado|Dato in raccolta||0,0000|350000,0000
Fondo Kyoto - D.L. 91/2014|Toscana|Grosseto|Capalbio|053003|Ministero dell`Ambiente e della Tutela del Territorio e del Mare|2017-05-30|||Capalbio|COMUNE|0530030030|GRIC82100A|GRAA82107D|CAPALBIO SCALO|||No|42.410332|11.37026|Efficientamento energetico scuola materna Capalbio Scalo|Start|J66J16001460004|0,0000|100500,0000
Fondo Kyoto - D.L. 91/2014|Umbria|Perugia|Castiglione del Lago|054009|Ministero dell`Ambiente e della Tutela del Territorio e del Mare|2017-05-30|||Castiglione del Lago|COMUNE|0540090520|PGMM05100R|PGMM05100R|F. RASETTI|||No|43.126334|12.043216|Riqualificazione energetica Media Rasetti|Start|H65I15000010004|0,0000|665000,0000
Fondo Kyoto - D.L. 91/2014|Lazio|Viterbo|Capranica|056014|Ministero dell`Ambiente e della Tutela del Territorio e del Mare|2017-05-30|||Capranica|COMUNE|0560140013|VTIC82500A|VTAA825017|SANTA M.DE MATTIAS|||Si|42.256657|12.178352|Progetto di Efficientamento energetico della Scuola Materna|Dato in raccolta||0,0000|345589,0000
Fondo Kyoto - D.L. 91/2014|Lazio|Viterbo|Fabrica di Roma|056024|Ministero dell`Ambiente e della Tutela del Territorio e del Mare|2017-05-30|||Fabrica di Roma|COMUNE|0560240169|VTIC812008|VTMM812019|S.GIOVANNI BOSCO|||No|42.335390|12.294276|Media San Giovanni Bosco|Start||0,0000|175237,6000
Fondo Kyoto - D.L. 91/2014|Lazio|Viterbo|Orte|056042|Ministero dell`Ambiente e della Tutela del Territorio e del Mare|2017-05-30|||Orte|COMUNE|0560420107|VTIC827002|VTEE827014|SC. PRIM. ORTE SCALO SACCHETTI|||No|42.435986|12.407457|Riqualificazione dell`edificio adibito a scuola elementare  Sirto Sacchetti|Dato in raccolta||0,0000|457162,6600
Fondo Kyoto - D.L. 91/2014|Lazio|Viterbo|Orte|056042|Ministero dell`Ambiente e della Tutela del Territorio e del Mare|2017-05-30|||Orte|COMUNE|0560420108|VTIC827002|VTEE827025|PRIM. ORTE DON P. ARCANGELI|||No|42.459188|12.385202|Riqualificazione dell`edificio adibito a scuola elementare  Don Pacifico Arcangeli|Dato in raccolta||0,0000|671830,6000
Fondo Kyoto - D.L. 91/2014|Lazio|Viterbo|Viterbo|056059|Ministero dell`Ambiente e della Tutela del Territorio e del Mare|2017-05-30|||Viterbo|COMUNE|||||||Si|42.422470|12.102695|Riqualificazione dell`edificio adibito a scuola elementare|Dato in raccolta||0,0000|500000,0000
Fondo Kyoto - D.L. 91/2014|Lazio|Roma|Fiano Romano|058036|Ministero dell`Ambiente e della Tutela del Territorio e del Mare|2017-05-30|||Fiano Romano|COMUNE|0580360733|RMIC87400D|RMEE87401G|Primaria - Fiano Romano|||No|42.171372|12.589711|Riqualificazione energetica elementare Fiano Romano ( de Amicis)|Start||0,0000|2000000,0000
Fondo Kyoto - D.L. 91/2014|Lazio|Roma|Roma|058091|Ministero dell`Ambiente e della Tutela del Territorio e del Mare|2017-05-30|||Roma Capitale|COMUNE|0580910996|RMIC8B800Q|RMMM8B801R|ANTONIO GRAMSCI|||No|41.854265|12.434652|Manutenzione straordinaria per riqualificazione energetica media Gramsci|Dato in raccolta||0,0000|1117400,6100
Fondo Kyoto - D.L. 91/2014|Lazio|Roma|Roma|058091|Ministero dell`Ambiente e della Tutela del Territorio e del Mare|2017-05-30|||Roma Capitale|COMUNE|0580911267|RMIC8ET00C|RMMM8ET01D|Sec. I - Via Dignano d`Istria|||No|41.896546|12.550148|Riqualificazione energetica ai sensi del DM 66 del 14/04/2015,via Dignano d`Istria 105,media Bartolomeo|Dato in raccolta||0,0000|819248,0600
Fondo Kyoto - D.L. 91/2014|Lazio|Roma|Roma|058091|Ministero dell`Ambiente e della Tutela del Territorio e del Mare|2017-05-30|||Roma Capitale|COMUNE|0580910000|RMIC83700E|RMEE83703P|Primaria - Via Petrocelli|||No|41.839508|12.607361|Manutenzione Straordinaria Ic Raffaello|Dato in raccolta||0,0000|496679,8900
Fondo Kyoto - D.L. 91/2014|Lazio|Roma|Roma|058091|Ministero dell`Ambiente e della Tutela del Territorio e del Mare|2017-05-30|||Roma Capitale|CITTAMETROPOLITANA|||||||No|41.905936|12.416504|Riqualificazione energetica Cuccioli e Coccole|Dato in raccolta||0,0000|265709,4900
Fondo Kyoto - D.L. 91/2014|Lazio|Roma|Roma|058091|Ministero dell`Ambiente e della Tutela del Territorio e del Mare|2017-05-30|||Roma Capitale|COMUNE|0580910415|RMIC8E700Q|RMEE8E702V|IDA DEL VECCHIO|||No|41.867507|12.643629|Progetto definitivo di manutenzione straordinaria  per la riqualificazione energetica della scuola elementare  Ida Del Vecchio|Dato in raccolta||0,0000|978594,0300
Fondo Kyoto - D.L. 91/2014|Lazio|Roma|Roma|058091|Ministero dell`Ambiente e della Tutela del Territorio e del Mare|2017-05-30|||Roma Capitale|COMUNE|0580911101|RMIC8GV009|RMMM8GV01A|VIA TAGGIA|||No|41.930644|12.421543|Interventi di riqualificazione energetica  ai sensi del DM 66 del 14/04/2015 dell`edificio scolastico sito in via Taggia ,70|Dato in raccolta||0,0000|1341725,0000
Fondo Kyoto - D.L. 91/2014|Lazio|Roma|Roma|058091|Ministero dell`Ambiente e della Tutela del Territorio e del Mare|2017-05-30|||Roma Capitale|COMUNE|0580911059|RMIC8EN004|RMMM8EN015|ALBERTO SORDI|||No|41.933514|12.550019|Lavori di riqualificazione energetica e adeguamento normativo per la scuola  alberto Sordi  sita in Piazza Gola, 64|Dato in raccolta||0,0000|1838873,1000
Fondo Kyoto - D.L. 91/2014|Lazio|Roma|Valmontone|058110|Ministero dell`Ambiente e della Tutela del Territorio e del Mare|2017-05-30|||Valmontone|COMUNE|0581100981|RMIC8BD00C|RMMM8BD01D|CARD. ORESTE GIORGI VALMONTONE|||No|41.7674|12.92628|Efficientamento energetico della scuola media Oreste Giorgi|Cantiere aperto|H91E15000110004|0,0000|338160,0000
Fondo Kyoto - D.L. 91/2014|Lazio|Roma|Ardea|058117|Ministero dell`Ambiente e della Tutela del Territorio e del Mare|2017-05-30|||Ardea|COMUNE|0581171168|RMIC8C9006|RMMM8C9017|VIRGILIO ARDEA|||No|41.612010|12.537021|Riqualificazione energetica scuola media  Virgilio|Dato in raccolta||0,0000|804758,6600
Fondo Kyoto - D.L. 91/2014|Lazio|Roma|Ardea|058117|Ministero dell`Ambiente e della Tutela del Territorio e del Mare|2017-05-30|||Ardea|COMUNE|0581170673|RMIC8DA006|RMEE8DA018|Primaria - Tor San Lorenzo|||No|41.570317|12.537459|Riqualificazione energetica scuola elementare di via Tanaro|Dato in raccolta||0,0000|640510,4000
Fondo Kyoto - D.L. 91/2014|Lazio|Roma|Ardea|058117|Ministero dell`Ambiente e della Tutela del Territorio e del Mare|2017-05-30|2017-06-16|2017-07-30|Ardea|COMUNE||RMIC8C800A|RMMM8C801B|SMS NUOVA FLORIDA|||No|41.615614|12.511382|Riqualificazione energetica scuola media  Nuova Florida|Dato in raccolta|D73D1700150001|0,0000|383646,7400
Fondo Kyoto - D.L. 91/2014|Lazio|Frosinone|Aquino|060007|Ministero dell`Ambiente e della Tutela del Territorio e del Mare|2017-05-30|||Aquino|COMUNE|0600070453|FRIC82300T|FREE82301X|AQUINO CAPOLUOGO|||No|41.496001|13.705941|Scuola elementare_Ic Aquino|Start||0,0000|134000,0000
Fondo Kyoto - D.L. 91/2014|Lazio|Frosinone|Castrocielo|060022|Ministero dell`Ambiente e della Tutela del Territorio e del Mare|2017-05-30|||Castrocielo|COMUNE|0600220284|FRIC82300T|FREE823021|SCUOLA PRIMARIA CAPOLUOGO|||No|41.530666|13.695166|Interventi  di riqualificazione energetica inclusi gli impianti e l`involucro comprese le opere necessarie di ristrutturazione, miglioramento sismico e messa in sicurezza|Dato in raccolta||0,0000|1050000,0000
Fondo Kyoto - D.L. 91/2014|Campania|Benevento|Foiano di Val Fortore|062031|Ministero dell`Ambiente e della Tutela del Territorio e del Mare|2017-05-30|||Foiano Val Fortore|COMUNE|0620310221|BNIC826006|BNAA826057|Infanzia - Via Santa Maria|||No|41.352216|14.979120|Interventi straordinari di efficientamento energetico della Scuola materna capoluogo nonche di modesti lavori di adeguamento alle norme di sicurezza dei luoghi e degli impianti in materia di prevenzione sismica|Dato in raccolta||0,0000|250000,0000
Fondo Kyoto - D.L. 91/2014|Campania|Benevento|Ponte|062053|Ministero dell`Ambiente e della Tutela del Territorio e del Mare|2017-05-30|||Ponte|COMUNE|0620530001|BNIC84900V|BNAA84901Q|PONTE "DOMENICO OCONE"|||No|41.214418|14.696105|Riqualificazione energetica Infanzia D Ocone|Dato in raccolta||0,0000|244701,1500
Fondo Kyoto - D.L. 91/2014|Campania|Napoli|Cardito|063016|Ministero dell`Ambiente e della Tutela del Territorio e del Mare|2017-05-30|||Cardito|COMUNE|0630162003|NAIC8GM00E|NAEE8GM01L|CARDITO 2 - DON BOSCO|||No|40.939665|14.286702|Efficientamento scuola Don Bosco|Start|I96J16000610004|0,0000|387618,7700
Fondo Kyoto - D.L. 91/2014|Campania|Napoli|Cardito|063016|Ministero dell`Ambiente e della Tutela del Territorio e del Mare|2017-05-30|||Cardito|COMUNE|0630162000|NAIC8EL00D|NAMM8EL01E|Sec. I - M. Polo-Galilei-Cardito         |||No|40.947112|14.300400|Efficientamento Galilei|Start|I96J16000620004|0,0000|453109,1800
Fondo Kyoto - D.L. 91/2014|Campania|Napoli|Melito di Napoli|063045|Ministero dell`Ambiente e della Tutela del Territorio e del Mare|2017-05-30|||Melito di Napoli|COMUNE|0630450715|NAEE34800P|NAAA34801E|MELITO 3 - COLLODI|||Si|40.901221|14.181938|Efficientamento energetico della scuola materna Collodi|Start||0,0000|235809,4700
Fondo Kyoto - D.L. 91/2014|Campania|Napoli|Napoli|063049|Ministero dell`Ambiente e della Tutela del Territorio e del Mare|2017-05-30|||Universita degli Studi di Napoli Federico II|COMUNE||||||Universita degli Studi di Napoli Federico II|No|40.829344|14.189879|Riqualificazione degli impianti di riscaldamento/climatizzazione dell`edificio del dipartimento informatica e sistemistica di via Claudio|Start||0,0000|768073,8700
Fondo Kyoto - D.L. 91/2014|Campania|Napoli|Napoli|063049|Ministero dell`Ambiente e della Tutela del Territorio e del Mare|2017-05-30|||Universita degli Studi di Napoli Federico II|COMUNE||||||Universita degli Studi di Napoli Federico II|No|40.829421|14.190349|Riqualificazione degli impianti di riscaldamento/climatizzazione dell`edificio del dipartimento meccanica per l`energetica di via Claudio|Start||0,0000|577701,1400
Fondo Kyoto - D.L. 91/2014|Campania|Napoli|Napoli|063049|Ministero dell`Ambiente e della Tutela del Territorio e del Mare|2017-05-30|||Universita degli Studi di Napoli Federico II|COMUNE||||||Universita degli Studi di Napoli Federico II|No|40.828982|14.190300|Riqualificazione degli impianti di riscaldamento/climatizzazione dell`edificio del dipartimento di scienze delle costruzioni di via Claudio|Start||0,0000|660254,6700
Fondo Kyoto - D.L. 91/2014|Campania|Napoli|Napoli|063049|Ministero dell`Ambiente e della Tutela del Territorio e del Mare|2017-05-30|||Universita degli Studi di Napoli Federico II|COMUNE||||||Universita degli Studi di Napoli Federico II|No|40.828685|14.190296|Riqualificazione degli impianti di riscaldamento/climatizzazione dell`edificio del dipartimento di geotecnica e idraulica di via Claudio|Start||0,0000|629523,7300
Fondo Kyoto - D.L. 91/2014|Campania|Napoli|Napoli|063049|Ministero dell`Ambiente e della Tutela del Territorio e del Mare|2017-05-30|||Universita degli Studi di Napoli Federico II|COMUNE||||||Universita degli Studi di Napoli Federico II|No|40.828406|14.190621|Riqualificazione degli impianti di riscaldamento/climatizzazione dell`edificio del dipartimento navale di via Claudio|Start||0,0000|195584,6400
Fondo Kyoto - D.L. 91/2014|Campania|Napoli|Napoli|063049|Ministero dell`Ambiente e della Tutela del Territorio e del Mare|2017-05-30|||Universita degli Studi di Napoli Federico II|COMUNE||||||Universita degli Studi di Napoli Federico II|No|40.829457|14.189151|Riqualificazione degli impianti di riscaldamento/climatizzazione dell`edificio del dipartimento di aureonatica, scienze e ingengeria dello spazio di via Claudio|Start||0,0000|174398,2700
Fondo Kyoto - D.L. 91/2014|Campania|Napoli|Napoli|063049|Ministero dell`Ambiente e della Tutela del Territorio e del Mare|2017-05-30|||Napoli|COMUNE||NAIC8DD00P|NAIC8DD00P|IC - F.Baracca-Vittorio Emanuele   |||No|40.838385|14.246419|Ic Baracca|Dato in raccolta||0,0000|1556779,0400
Fondo Kyoto - D.L. 91/2014|Campania|Napoli|Napoli|063049|Ministero dell`Ambiente e della Tutela del Territorio e del Mare|2017-05-30|||Universita degli Studi di Napoli Federico II|COMUNE||||||Universita degli Studi di Napoli Federico II|No|40.828817|14.190133|Riqualificazione degli impianti di riscaldamento/climatizzazione presenti all`interno dell`edificio deel dipartimento di elettronica del complesso universitario di Via Claudio|Start||0,0000|328471,1700
Fondo Kyoto - D.L. 91/2014|Campania|Napoli|Napoli|063049|Ministero dell`Ambiente e della Tutela del Territorio e del Mare|2017-05-30|||Universita degli Studi di Napoli Federico II|COMUNE||||||Universita degli Studi di Napoli Federico II|No|40.829151|14.190296|Riqualificazione degli impianti di riscaldamento/climatizzazione presenti all`interno dell`edificio del dipartimento di trasporti, informatica e sistemistica del complesso universitario di Via Claudio|Start||0,0000|327061,8000
Fondo Kyoto - D.L. 91/2014|Campania|Napoli|Napoli|063049|Ministero dell`Ambiente e della Tutela del Territorio e del Mare|2017-05-30|||Universita degli Studi di Napoli Federico II|COMUNE||||||Universita degli Studi di Napoli Federico II|No|40.828521|14.189912|Riqualificazione degli impianti di riscaldamento/climatizzazione presenti all`interno dell`edificio laboratori progettazione aeronautica, scienze e ingegneria dello spazio del complesso universitario di Via Claudio|Start||0,0000|182963,0400
Fondo Kyoto - D.L. 91/2014|Campania|Napoli|Napoli|063049|Ministero dell`Ambiente e della Tutela del Territorio e del Mare|2017-05-30|||Universita degli Studi di Napoli Federico II|COMUNE||||||Universita degli Studi di Napoli Federico II|No|40.828617|14.190601|Riqualificazione energetica dell`edificio della sede centrale - Corso Umberto I|Start||0,0000|984560,2700
Fondo Kyoto - D.L. 91/2014|Campania|Napoli|Pomigliano d`Arco|063057|Ministero dell`Ambiente e della Tutela del Territorio e del Mare|2017-05-30|||Pomigliano d`Arco|COMUNE|0630571609|NAIC8DE00E|NAEE8DE02N|Primaria - Via delle Puglie|||No|40.905830|14.395561|Riqualificazione energetica Primaria Buonpensiera|Start||0,0000|635990,0000
Fondo Kyoto - D.L. 91/2014|Campania|Avellino|Atripalda|064006|Ministero dell`Ambiente e della Tutela del Territorio e del Mare|2017-05-30|||Atripalda|COMUNE|0640060140|AVIC878003|AVMM878014|RAFFAELE MASI|||No|40.926215|14.827616|Scuola Media R  Masi|Dato in raccolta||0,0000|795000,0000
Fondo Kyoto - D.L. 91/2014|Campania|Salerno|Giffoni Valle Piana|065056|Ministero dell`Ambiente e della Tutela del Territorio e del Mare|2017-05-30|||Giffoni Valle Piana|COMUNE|0650560003|SAEE06200R|SAAA062091|MARIELE VENTRE|||No|40.714195|14.942467|Intervento di efficientamento energetico della scuola materna  Mariele Ventre|Dato in raccolta||0,0000|658082,6600
Fondo Kyoto - D.L. 91/2014|Campania|Salerno|Giffoni Valle Piana|065056|Ministero dell`Ambiente e della Tutela del Territorio e del Mare|2017-05-30|||Giffoni Valle Piana|COMUNE|0650560001|SAEE06200R|SAAA06206T|CHIEVE|||Si|40.719220|14.940397|Intervento di efficientamento energetico scuola materna  Chieve|Start||0,0000|460869,4400
Fondo Kyoto - D.L. 91/2014|Campania|Salerno|Vallo della Lucania|065154|Ministero dell`Ambiente e della Tutela del Territorio e del Mare|2017-05-30|||Vallo della Lucania|COMUNE|0651540146|SAEE178007|SAAA178035|Infanzia - Massa|||No|40.220941|15.271882|Interventi straordinari di efficientamento energetico della Scuola materna in localita Massa|Dato in raccolta||0,0000|395000,0000
Fondo Kyoto - D.L. 91/2014|Abruzzo|L`Aquila|Celano|066032|Ministero dell`Ambiente e della Tutela del Territorio e del Mare|2017-05-30|||Celano|COMUNE|0660320930|AQEE031004|AQEE031048|CENTRO - CELANO|||No|42.086158|13.545739|Interventi di adeguamento sismico, igienico sanitario e prevenzione incendi, riqualificazione energetica, inclusi gli impianti e l`involucro|Dato in raccolta||0,0000|1630000,0000
Fondo Kyoto - D.L. 91/2014|Abruzzo|L`Aquila|Celano|066032|Ministero dell`Ambiente e della Tutela del Territorio e del Mare|2017-05-30|||Celano|COMUNE|0660320956|AQEE031004|AQAA031054|MADONNA DELLE GRAZIE|||Si|42.088040|13.541497|Interventi di adeguamento sismico, igienico sanitario e prevenzione incendi, riqualificazione energetica, inclusi gli impianti e l`involucro|Dato in raccolta||0,0000|490000,0000
Fondo Kyoto - D.L. 91/2014|Abruzzo|L`Aquila|Celano|066032|Ministero dell`Ambiente e della Tutela del Territorio e del Mare|2017-05-30|||Celano|COMUNE|0660320923|AQEE031004|AQAA031032|"PICCOLOMINI" CELANO|||No|42.082659|13.548621|Interventi di adeguamento sismico, igienico sanitario e prevenzione incendi, riqualificazione energetica, inclusi gli impianti e l`involucro|Dato in raccolta||0,0000|530000,0000
Fondo Kyoto - D.L. 91/2014|Abruzzo|L`Aquila|Celano|066032|Ministero dell`Ambiente e della Tutela del Territorio e del Mare|2017-05-30|||Celano|COMUNE|||||||Si|42.084888|13.545506|Interventi di adeguamento sismico, igienico sanitario e prevenzione incendi, riqualificazione energetica, inclusi gli impianti e l`involucro|Dato in raccolta||0,0000|800000,0000
Fondo Kyoto - D.L. 91/2014|Abruzzo|L`Aquila|Cerchio|066033|Ministero dell`Ambiente e della Tutela del Territorio e del Mare|2017-05-30|||Cerchio|COMUNE|0660330209|AQIC828006|AQMM828028|D.ALIGHIERI|||No|42.064923|13.600430|Interventi di adeguamento sismico, igienico sanitario e prevenzione incendi, riqualificazione energetica, inclusi gli impianti e l`involucro|Dato in raccolta||0,0000|1500000,0000
Fondo Kyoto - D.L. 91/2014|Abruzzo|Chieti|Celenza sul Trigno|069021|Ministero dell`Ambiente e della Tutela del Territorio e del Mare|2017-05-30|||Celenza sul Trigno|COMUNE|0690210633|CHIC816009|CHMM81604D|CELENZA SUL TRIGNO|||No|41.872995|14.579325|Lavori efficientamento energetico mediante la sostituzione di infissi sull`edificio scolastico di proprieta comunale che ospita la scuola media-elementare|Cantiere aperto|H66J6000340001|0,0000|104000,0000
Fondo Kyoto - D.L. 91/2014|Abruzzo|Chieti|Miglianico|069050|Ministero dell`Ambiente e della Tutela del Territorio e del Mare|2017-05-30|||Miglianico|COMUNE|0690500112|CHIC82200L|CHAA82201D|SC. INFANZIA MIGLIANICO CAP.|||No|42.360304|14.293014|Riqualificazione energetica dell`edificio scolastico SCUOLA DELL`INFANZIA|Start|B85I15000880004|0,0000|147000,0000
Fondo Kyoto - D.L. 91/2014|Abruzzo|Chieti|Miglianico|069050|Ministero dell`Ambiente e della Tutela del Territorio e del Mare|2017-05-30|||Miglianico|COMUNE|0690500268|CHIC82200L|CHEE82201P|SC. PRIMARIA MIGLIANICO  CAP.|||No|42.359927|14.293647|Efficientamento energetico dell`edificio scolastico primaria Cesidio d`Amato|Start|B85I15000890004|0,0000|132500,0000
Fondo Kyoto - D.L. 91/2014|Abruzzo|Chieti|Miglianico|069050|Ministero dell`Ambiente e della Tutela del Territorio e del Mare|2017-05-30|||Miglianico|COMUNE|0690500367|CHIC82200L|CHMM82202P|SCUOLA MEDIA MIGLIANICO|||No|42.359035|14.292569|Efficientamento energetico dell`edificio scolastico secondaria Valignani|Start|B85I15000900004|0,0000|185000,0000
Fondo Kyoto - D.L. 91/2014|Abruzzo|Chieti|Torrevecchia Teatina|069094|Ministero dell`Ambiente e della Tutela del Territorio e del Mare|2017-05-30|||Torrevecchia Teatina|COMUNE|0690940713|CHIC81000A|CHEE81002D|TORREVECCHIA TEATINA CAPOLUOGO|||No|42.381061|14.210399|Efficientamento energetico dell`edificio scolastico scuola primaria|Cantiere aperto|I71E15000510004|0,0000|115000,0000
Fondo Kyoto - D.L. 91/2014|Puglia|Foggia|Manfredonia|071029|Ministero dell`Ambiente e della Tutela del Territorio e del Mare|2017-05-30|||Manfredonia|COMUNE|0710290080|FGIC82900Q|FGAA82903P|VIALE PARCO DEI PELLEGRINI|||No|41.623527|15.903794|Opere di efficientamento energetico  Parco Pellegrino|Dato in raccolta||0,0000|57304,2000
Fondo Kyoto - D.L. 91/2014|Puglia|Foggia|Manfredonia|071029|Ministero dell`Ambiente e della Tutela del Territorio e del Mare|2017-05-30|||Manfredonia|COMUNE|0710290074|FGIC864003|FGEE864015|DE SANCTIS|||No|41.632782|15.923996|Opere di efficientamento energetico Scuola elementare  F  De Sanctis|Dato in raccolta||0,0000|877009,0000
Fondo Kyoto - D.L. 91/2014|Puglia|Foggia|Manfredonia|071029|Ministero dell`Ambiente e della Tutela del Territorio e del Mare|2017-05-30|||Manfredonia|COMUNE|0710290073|FGIC864003|FGAA86401X|INFANZIA VIA FIERAMOSCA|||No|41.634185|15.919689|Opere di efficientamento energetico  E  Fieramosca|Dato in raccolta||0,0000|100816,0000
Fondo Kyoto - D.L. 91/2014|Puglia|Foggia|Orsara di Puglia|071035|Ministero dell`Ambiente e della Tutela del Territorio e del Mare|2017-05-30|||Orsara di Puglia|COMUNE|0710350280|FGIC85800Q|FGMM85803V|SEC I° SACRO CUORE|||No|41.283549|15.267957|Riqualificazione energetica Ic Virgilio sede di Orsara_Sec I grado _Auditorium|Start||0,0000|300000,0000
Fondo Kyoto - D.L. 91/2014|Puglia|Lecce|Ortelle|075056|Ministero dell`Ambiente e della Tutela del Territorio e del Mare|2017-05-30|2017-06-16|2017-07-30|Ortelle|COMUNE|0750560374|LEIC88000B|LEMM88005L|Sec. I - Via Dante|||No|40.033554|18.391482|Riqualificazione energetica della scuola media ed elementare sita in via Dante|Concluso||0,0000|253898,0000
Fondo Kyoto - D.L. 91/2014|Basilicata|Potenza|Satriano di Lucania|076083|Ministero dell`Ambiente e della Tutela del Territorio e del Mare|2017-05-30|||Satriano|COMUNE|0760830450|PZIC81700L|PZMM81701N|Sec. I  - Satriano di Lucania  |||No|40.541244|15.642625|Efficientamento energetico istituto comprensivo  G  Palermo  Scuola dell`Infanzia e Secondaria di primo grado|Dato in raccolta||0,0000|895000,0000
Fondo Kyoto - D.L. 91/2014|Basilicata|Matera|Pomarico|077022|Ministero dell`Ambiente e della Tutela del Territorio e del Mare|2017-05-30|||Pomarico|COMUNE|0770220058|MTIC83300N|MTAA83303L|A.FALOTICO|||No|40.527887|16.528673|Riqualificazione energetica del plesso scolastico suola dell`infanzia A  Falotico a Pomarico|Dato in raccolta||0,0000|227583,7800
Fondo Kyoto - D.L. 91/2014|Calabria|Cosenza|Amantea|078010|Ministero dell`Ambiente e della Tutela del Territorio e del Mare|2017-05-30|||Amantea|COMUNE|0780100791|CSIC81800B|CSAA818018|AMANTEA I.C. - CAMPORA S.GIOV.|||No|39.069210|16.094642|Riqualificazione energetica Infanzia e Primaria Campora|Dato in raccolta||0,0000|361877,5000
Fondo Kyoto - D.L. 91/2014|Calabria|Cosenza|Carolei|078026|Ministero dell`Ambiente e della Tutela del Territorio e del Mare|2017-05-30|||Carolei|COMUNE|0780260905|CSIC80200T|CSAA80203R|CAROLEI - PIRETTO|||No|39.260187|16.221665|Riqualificazione energetica dell`edificio adibito a scuola dell`infanzia statale sito in loc  Piretto del comune di Carolei (CS)|Dato in raccolta||0,0000|361587,6800
Fondo Kyoto - D.L. 91/2014|Calabria|Cosenza|Diamante|078048|Ministero dell`Ambiente e della Tutela del Territorio e del Mare|2017-05-30|||Diamante|COMUNE|0780480190|CSIC836001|CSAA83601T|DIAMANTE - CENTRO|||No|39.675962|15.823766|Efficientamento energetico della scuola materna di via Domenico Savio|Dato in raccolta||0,0000|139496,7100
Fondo Kyoto - D.L. 91/2014|Calabria|Cosenza|Rende|078102|Ministero dell`Ambiente e della Tutela del Territorio e del Mare|2017-05-30|2017-07-05|2018-01-21|Rende|COMUNE|0781020297|CSIC89000N|CSEE89001Q|Primaria - SANT`AGOSTINO|||No|39.325670|16.237746|Riqualificazione energetica Primaria Sant`Agostino|Cantiere aperto|E24H15001040001|0,0000|361999,6800
Fondo Kyoto - D.L. 91/2014|Calabria|Cosenza|Rende|078102|Ministero dell`Ambiente e della Tutela del Territorio e del Mare|2017-05-30|2017-07-05|2017-12-31|Rende|COMUNE|0781021100|CSIC89100D|CSMM89101E|Sec. I° Santo Stefano|||No|39.348813|16.194851|Riqualificazione energetica Media loc  Santo Stefano|Start|E24H15001050001|0,0000|349895,0000
Fondo Kyoto - D.L. 91/2014|Calabria|Cosenza|Rende|078102|Ministero dell`Ambiente e della Tutela del Territorio e del Mare|2017-05-30|||Rende|COMUNE|0781020949|CSIC8AK00C|CSMM8AK01D|SM RENDE DE COUBERTIN-COMMENDA|||No|39.331678|16.242703|Interventi  di riqualificazione ed efficientamento energetico dell`edificio scolastico di Secondo grado - Via Panagulis|Start||0,0000|468000,0000
Fondo Kyoto - D.L. 91/2014|Calabria|Cosenza|Roseto Capo Spulico|078107|Ministero dell`Ambiente e della Tutela del Territorio e del Mare|2017-05-30|||Roseto Capo Spulico|COMUNE|0781070463|CSIC85200V|CSMM852043|SC.SEC. I GR.ROSETO CAPO SPULIC|||No|39.9740396|16.6198319|Lavori di riqualificazione energetica dell`edificio adibito a Scuola Media sito nella Marina di Roseto Capo Spulico (CS)|Start||0,0000|436467,3900
Fondo Kyoto - D.L. 91/2014|Calabria|Cosenza|Sangineto|078117|Ministero dell`Ambiente e della Tutela del Territorio e del Mare|2017-05-30|||Sangineto|COMUNE|0781170080|CSIC83300D|CSEE83304P|Primaria - SANGINETO|||No|39.603584|15.914429|Riqualificazione Scuola Primaria Sangineto Centro Storico|Dato in raccolta||0,0000|395375,0000
Fondo Kyoto - D.L. 91/2014|Calabria|Cosenza|Sangineto|078117|Ministero dell`Ambiente e della Tutela del Territorio e del Mare|2017-05-30|||Sangineto|COMUNE|0781170080|CSIC8AS00C|CSEE8AS06Q|SANGINETO - CENTRO|||No|39.603584|15.914429|Riqualificazione energetica dell`edificio adibito a scuola primaria sito in localita Centro Storico nel comune di Sangineto (CS)|Dato in raccolta||0,0000|395375,7700
Fondo Kyoto - D.L. 91/2014|Calabria|Cosenza|San Nicola Arcella|078125|Ministero dell`Ambiente e della Tutela del Territorio e del Mare|2017-05-30|||San Nicola Arcella|COMUNE|0781250887|CSIC8AU004|CSMM8AU037|SM S.NICOLA A. (IC- PRAIA A M.)|||No|39.846990|15.791755|Riqualificazione energetica scuola media|Dato in raccolta||0,0000|628709,8200
Fondo Kyoto - D.L. 91/2014|Calabria|Cosenza|San Nicola Arcella|078125|Ministero dell`Ambiente e della Tutela del Territorio e del Mare|2017-05-30|||San Nicola Arcella|COMUNE|0781250645|CSIC8AU004|CSEE8AU049|PRAIA IC - S.NICOLA ARCELLA|||No|39.848190|15.792291|Intervento di riqualificazione energetica dell`edificio della Scuola Elementare e Materna|Dato in raccolta||0,0000|316769,2300
Fondo Kyoto - D.L. 91/2014|Calabria|Cosenza|Spezzano della Sila|078143|Ministero dell`Ambiente e della Tutela del Territorio e del Mare|2017-05-30|||Spezzano della Sila|COMUNE|0781430738|CSIC85500A|CSAA855028|SPEZZANO SILA - CAMIGLIATELLO|||No|39.340293|16.449817|Riqualificazione energetica della scuola dell`infanzia sita in loc  Camigliatello Silano nel Comune di Spezzano della Sila (Cs)|Dato in raccolta||0,0000|292437,7800
Fondo Kyoto - D.L. 91/2014|Calabria|Cosenza|Terranova da Sibari|078146|Ministero dell`Ambiente e della Tutela del Territorio e del Mare|2017-05-30|||Terranova da Sibari|COMUNE|0781460001|CSIC842008|CSAA842015|TERRANOVA DA S./C. V.MARGHERITA|||No|39.656542|16.340542|Lavori di riqualificazione energetica dell`edificio adibito a Scuola Elementare e dell`Infanzia sito in Via Riccio nel comune di Terranova da Sibari (Cs)|Dato in raccolta||0,0000|490491,6600
Fondo Kyoto - D.L. 91/2014|Calabria|Cosenza|Verbicaro|078153|Ministero dell`Ambiente e della Tutela del Territorio e del Mare|2017-05-30|||Verbicaro|COMUNE|0781530951|CSIC834009|CSEE83403D|Primaria - OROLOG.|||No|39.755520|15.916436|Progetto di fattibilita tecnica ed economica lavori di riqualificazione energetica dell`edificio adibito a scuola primaria sito in via molinelle nel comune di verbicaro|Dato in raccolta||0,0000|591650,0700
Fondo Kyoto - D.L. 91/2014|Calabria|Cosenza|Verbicaro|078153|Ministero dell`Ambiente e della Tutela del Territorio e del Mare|2017-05-30|||Verbicaro|COMUNE|0781531443|CSIC834009|CSAA834027|VERBICARO/CENTRO|||No|39.754712|15.915743|Progetto di fattibilita tecnica ed economica  Lavori di riqualificazione energetica dell`edificio adibito a scuola dell`infanzia di via Molinelli censita al foglio di mappa n 19 p lla 370 nel Comune di Verbicaro|Dato in raccolta||0,0000|331098,6200
Fondo Kyoto - D.L. 91/2014|Calabria|Catanzaro|Montepaone|079081|Ministero dell`Ambiente e della Tutela del Territorio e del Mare|2017-05-30|||Montepaone|COMUNE|||||||Si|38.722001|16.498825|Progetto di efficientamento energetico di scuola pubblica adibita ad asilo nido nel comune di Montepaone (CZ)|Dato in raccolta||0,0000|333381,4300
Fondo Kyoto - D.L. 91/2014|Calabria|Catanzaro|Soveria Simeri|079139|Ministero dell`Ambiente e della Tutela del Territorio e del Mare|2017-05-30|||Soveria Simeri|COMUNE|0791390525|CZIC83800C|CZEE83802G|Primaria - SOVERIA SIMERI|||No|38.946348|16.680106|Riqualificazione energetica della scuola elementare|Start|53D16003710001|0,0000|119298,7100
Fondo Kyoto - D.L. 91/2014|Calabria|Catanzaro|Soveria Simeri|079139|Ministero dell`Ambiente e della Tutela del Territorio e del Mare|2017-05-30|||Soveria Simeri|COMUNE|0791390526|CZIC83800C|CZMM83802E|SMS SOVERIA SIMERI -I.C.SIMERI-|||No|38.945785|16.680179|Riqualificazione energetica della scuola media|Start|B53D16003700001|0,0000|88247,9300
Fondo Kyoto - D.L. 91/2014|Calabria|Reggio di Calabria|Reggio di Calabria|080063|Ministero dell`Ambiente e della Tutela del Territorio e del Mare|2017-05-30|||Reggio Calabria|PROVINCIA|0800630724|RCPC050008|RCPC050008|LICEO CLASSICO "TOMMASO CAMPANELLA"|||No|38.107419|15.643975|Efficientamento energetico della scuola Liceo classico Tommaso Campanella|Dato in raccolta||0,0000|2000000,0000
Fondo Kyoto - D.L. 91/2014|Sicilia|Trapani|Buseto Palizzolo|081002|Ministero dell`Ambiente e della Tutela del Territorio e del Mare|2017-05-30|||Buseto Palizzolo|COMUNE|0810022435|TPIC814007|TPEE81404C|BATTAGLIA|||No|38.013795|12.722034|Scuola elementare  Edmondo De Amicis|Dato in raccolta|J84E17000020001|0,0000|40399,4800
Fondo Kyoto - D.L. 91/2014|Sicilia|Trapani|Buseto Palizzolo|081002|Ministero dell`Ambiente e della Tutela del Territorio e del Mare|2017-05-30|||Buseto Palizzolo|COMUNE|0810022436|TPIC814007|TPEE81405D|PIANO NEVE|||No|37.999838|12.703460|Riqualificazione energetica della Scuola elementare di c da ?Piano Neve?|Dato in raccolta||0,0000|44764,9800
Fondo Kyoto - D.L. 91/2014|Sicilia|Trapani|Buseto Palizzolo|081002|Ministero dell`Ambiente e della Tutela del Territorio e del Mare|2017-05-30|||Buseto Palizzolo|COMUNE|0810022437|TPIC814007|TPMM814029|SC. MEDIA  "A.MANZONI"|||No|38.013770|12.722621|Riqualificazione energetica della Scuola media ?Alessandro Manzoni?|Dato in raccolta||0,0000|219980,9300
Fondo Kyoto - D.L. 91/2014|Sicilia|Messina|Francavilla di Sicilia|083025|Ministero dell`Ambiente e della Tutela del Territorio e del Mare|2017-05-30|||Francavilla di Sicilia|COMUNE|0830253655|MEIC835003|MEEE835026|FRANCAVILLA DI SICILIA|||No|37.901142|15.134492|Interventi di riqualificazione energetica della Scuola Elementare, inclusi gli impianti e l`involucro edilizio|Dato in raccolta||0,0000|240000,0000
Fondo Kyoto - D.L. 91/2014|Sicilia|Messina|Francavilla di Sicilia|083025|Ministero dell`Ambiente e della Tutela del Territorio e del Mare|2017-05-30|||Francavilla di Sicilia|COMUNE|0830253643|MEIC835003|MEMM835014|Sec. I - Goffredo Mameli|||No|37.903631|15.135401|Riqualificazione energetica della Scuola Media di piazza L  Pirandello|Dato in raccolta||0,0000|162809,3200
Fondo Kyoto - D.L. 91/2014|Sicilia|Messina|Francavilla di Sicilia|083025|Ministero dell`Ambiente e della Tutela del Territorio e del Mare|2017-05-30|||Francavilla di Sicilia|COMUNE|0830253644|MEIC835003|MEAA83501X|FRANCAVILLA SICILIA|||Si|37.902848|15.133606|Riqualificazione energetica Scuola Materna di via della Liberta|Dato in raccolta||0,0000|93308,3200
Fondo Kyoto - D.L. 91/2014|Sicilia|Messina|Limina|083040|Ministero dell`Ambiente e della Tutela del Territorio e del Mare|2017-05-30|||Limina|COMUNE|0830401094|MEIC88600X|MEMM886055|LIMINA|||No|37.941732|15.272318|Interventi di riqualificazione energetica del plesso scolastico (scuole elementari e medie), sito in via monaco, inclusi gli impianti e l`involucro edilizio|Start||0,0000|201086,8000
Fondo Kyoto - D.L. 91/2014|Sicilia|Messina|Limina|083040|Ministero dell`Ambiente e della Tutela del Territorio e del Mare|2017-05-30|||Limina|COMUNE|0830401088|MEIC88600X|MEAA886084|LIMINA|||No|37.942339|15.272531|Interventi di riqualificazione energetica della Scuola dell`Infanzia sita in via Monaco, inclusi gli impianti e l`involucro edilizio|Start||0,0000|91700,0000
Fondo Kyoto - D.L. 91/2014|Sicilia|Messina|Malvagna|083044|Ministero dell`Ambiente e della Tutela del Territorio e del Mare|2017-05-30|||Malvagna|COMUNE|0830443040|MEIC835003|MEMM835058|MALVAGNA|||No|37.918525|15.053976|Intervento di riqualificazione energetica del Plesso scolastico sito in via G  Garibaldi inclusi gli impianti e l`involucro edilizio|Start||0,0000|163600,0000
Fondo Kyoto - D.L. 91/2014|Sicilia|Messina|Merì|083047|Ministero dell`Ambiente e della Tutela del Territorio e del Mare|2017-05-30|||Mer?|COMUNE|0830473592|MEIC82400L|MEMM82402P|Sec. I - Merì|||No|38.166556|15.254660|Scuola Media|Start||0,0000|82000,0000
Fondo Kyoto - D.L. 91/2014|Sicilia|Messina|Merì|083047|Ministero dell`Ambiente e della Tutela del Territorio e del Mare|2017-05-30|||Mer?|COMUNE|0830473597|MEIC82400L|MEEE82401P|Primaria - Merì|||No|38.164558|15.248832|Interventi di riqualificazione energetica del plesso scolastico sito in via Cesare Battisti, inclusi gli impianti e l`involucro edilizio|Dato in raccolta||0,0000|104403,4000
Fondo Kyoto - D.L. 91/2014|Sicilia|Messina|Sant`Alessio Siculo|083085|Ministero dell`Ambiente e della Tutela del Territorio e del Mare|2017-05-30|||Sant`Alessio Siculo|COMUNE|0830853641|MEIC88900B|MEMM88903E|Sec. I - Sant`Alessio Siculo|||No|37.928289|15.351640|Interventi di riqualificazione energetica del plesso scolastico sito in via Marasciallo Altadonna, inclusi gli impianti e l`involucro edilizio|Dato in raccolta||0,0000|98000,0000
Fondo Kyoto - D.L. 91/2014|Sicilia|Messina|Santa Teresa di Riva|083089|Ministero dell`Ambiente e della Tutela del Territorio e del Mare|2017-05-30|||Santa Teresa di Riva|COMUNE|0830893770|MEEE06000T|MEEE060031|FRAZ. BUCALO|||No|37.955481|15.374465|Interventi di riqualificazione energetica del plesso scolastico Bucalo sito in via Santi Spadaro inclusi gli impianti e l`involucro edilizio|Start||0,0000|179670,0000
Fondo Kyoto - D.L. 91/2014|Sicilia|Messina|Terme Vigliatore|083106|Ministero dell`Ambiente e della Tutela del Territorio e del Mare|2017-05-30|||Terme Vigliatore|COMUNE|0831063725|MEIC85700X|MEEE857034|S. BIAGIO|||No|38.130358|15.146639|Scuola materna elementare S  Biagio|Dato in raccolta||0,0000|90000,0000
Fondo Kyoto - D.L. 91/2014|Sicilia|Caltanissetta|Marianopoli|085008|Ministero dell`Ambiente e della Tutela del Territorio e del Mare|2017-05-30|||Marianopoli|COMUNE|0850080747|CLIC80400G|CLMM80403P|S.M. GIOVANNI XXIII-MARIANOPOLI|||No|37.600505|13.913365|Riqualificazione energetica della Scuola Media  Giovanni XXIII|Dato in raccolta||0,0000|355955,3400
Fondo Kyoto - D.L. 91/2014|Sicilia|Catania|Linguaglossa|087021|Ministero dell`Ambiente e della Tutela del Territorio e del Mare|2017-05-30|||Linguaglossa|COMUNE|||||||Si|37.843333|15.138161|Riqualificazione energetica|Dato in raccolta||0,0000|256539,4100
Fondo Kyoto - D.L. 91/2014|Molise|Isernia|Civitanova del Sannio|094016|Ministero dell`Ambiente e della Tutela del Territorio e del Mare|2017-05-30|||Civitanova del Sannio|COMUNE|0940160144|ISIC82600E|ISMM82601G|CIVITANOVA DEL SANNIO|||No|41.667104|14.403322|Riqualificazione energetica Primaria e Media Civitanova|Dato in raccolta||0,0000|230000,0000
Fondo Kyoto - D.L. 91/2014|Molise|Isernia|Isernia|094023|Ministero dell`Ambiente e della Tutela del Territorio e del Mare|2017-05-30|||Isernia|COMUNE|0940230193|ISIC822007|ISMM822018|GIOVANNI XXIII|||No|41.595203|14.231625|Riqualificazione energetica della scuola Giovanni XXIII|Dato in raccolta||0,0000|54000,0000
Fondo Kyoto - D.L. 91/2014|Molise|Isernia|Isernia|094023|Ministero dell`Ambiente e della Tutela del Territorio e del Mare|2017-05-30|||Isernia|COMUNE|0940230126|ISIC822007|ISMM83401E|ANDREA D`ISERNIA|||No|41.595307|14.233345|Riqualificazione energetica dela scuola Andrea d`Isernia|Dato in raccolta||0,0000|435000,0000
Fondo Kyoto - D.L. 91/2014|Piemonte|Biella|Biella|096004|Ministero dell`Ambiente e della Tutela del Territorio e del Mare|2017-05-30|||Biella|PROVINCIA|0960040045|BITF01000Q|BITF01000Q|Q. SELLA - ITI|||No|45.559247|8.047460|Riqualificazione energetica dell` I I S   Q Sella  via rosselli|Dato in raccolta||0,0000|1200000,0000
Fondo Kyoto - D.L. 91/2014|Lombardia|Lecco|Esino Lario|097035|Ministero dell`Ambiente e della Tutela del Territorio e del Mare|2017-05-30|||Esino Lario|COMUNE|0970351684|LCIC80500C|LCEE80502G|PRIMARIA DI ESINO LARIO|||No|45.996003|9.331421|Riqualififcazione energetica scuole elementari|Cantiere aperto|G35I16000090004|0,0000|278652,5900
Fondo Kyoto - D.L. 91/2014|Toscana|Prato|Prato|100005|Ministero dell`Ambiente e della Tutela del Territorio e del Mare|2017-05-30|||Prato|COMUNE|||||||No|43.872822|11.084978|Riqualificazione asilo nido Arcobaleno|Start|C36B11000040004|0,0000|360000,0000
Fondo Kyoto - D.L. 91/2014|Toscana|Prato|Prato|100005|Ministero dell`Ambiente e della Tutela del Territorio e del Mare|2017-05-30|||Prato|COMUNE|||||||Si|43.880797|11.096909|Riqualificazione asilo nido Fiore|Start|C36B11000050004|0,0000|345000,0000
Fondo Kyoto - D.L. 91/2014|Toscana|Prato|Prato|100005|Ministero dell`Ambiente e della Tutela del Territorio e del Mare|2017-05-30|||Prato|COMUNE|1000050071|POIC81900T|POEE819032|Primaria - Ivana Marcocci|||No|43.849297|11.078805|Riqualificazione energetica scuola primaria e nido Fontanelle|Start||0,0000|550000,0000
Fondo Kyoto - D.L. 91/2014|Toscana|Prato|Prato|100005|Ministero dell`Ambiente e della Tutela del Territorio e del Mare|2017-05-30|||Prato|COMUNE|1000050048|POIC81500E|POMM81501G|F.LIPPI|||No|43.893159|11.090945|Riqualificazione energetica scuola Sec I grado Lippi|Start|C31E15000570004|0,0000|810000,0000
Fondo Kyoto - D.L. 91/2014|Toscana|Prato|Prato|100005|Ministero dell`Ambiente e della Tutela del Territorio e del Mare|2017-05-30|||Prato|COMUNE|1000050063|POIC820002|POEE820025|G.PUCCINI/BARTOLINI|||No|43.896818|11.097897|Riqualificazione energetica scuola primaria Nido Puccini|Start|C31E15000580004|0,0000|515000,0000
Fondo Kyoto - D.L. 91/2014|Calabria|Vibo Valentia|Briatico|102003|Ministero dell`Ambiente e della Tutela del Territorio e del Mare|2017-05-30|||Briatico|COMUNE||VVIC823009|||||Si|38.722901|16.027881|Riqualificazione energetica della scuola elementare|Dato in raccolta| I52C1700000000|0,0000|214135,4300
Fondo Kyoto - D.L. 91/2014|Calabria|Vibo Valentia|Fabrizia|102010|Ministero dell`Ambiente e della Tutela del Territorio e del Mare|2017-05-30|||Fabrizia|COMUNE|1020100153|VVIC80700B|VVEE80701D|CAPOLUOGO (FABRIZIA)|||No|38.484332|16.302565|Riqualificazione energetica della scuola elementare di Fabrizia sita in via Orlando Costa|Start||0,0000|303990,1500
Fondo Kyoto - D.L. 91/2014|Calabria|Vibo Valentia|Gerocarne|102016|Ministero dell`Ambiente e della Tutela del Territorio e del Mare|2017-05-30|||Gerocarne|COMUNE||VVIC81500A|||||Si|38.587378|16.219641|Riqualificazione energetica della scuola elementare sita in via Orlando Costa|Concluso|I96J16000330001|0,0000|178401,1500
Fondo Kyoto - D.L. 91/2014|Calabria|Vibo Valentia|Ionadi|102017|Ministero dell`Ambiente e della Tutela del Territorio e del Mare|2017-05-30|||Ionadi|COMUNE|1020170320|VVIC81200V|VVEE812066|NAO|||No|38.629895|16.061623|Riqualificazione energetica della scuola elementare (frazione Nao)|Start||0,0000|78532,4700
Fondo Kyoto - D.L. 91/2014|Calabria|Vibo Valentia|Ionadi|102017|Ministero dell`Ambiente e della Tutela del Territorio e del Mare|2017-05-30|||Ionadi|COMUNE|1020170903|VVIC81200V|VVAA81205X|IONADI|||No|38.629144|16.054703|Riqualificazione energetica della scuola materna|Start||0,0000|65443,7300
Fondo Kyoto - D.L. 91/2014|Calabria|Vibo Valentia|Ricadi|102030|Ministero dell`Ambiente e della Tutela del Territorio e del Mare|2017-05-30|||Ricadi|COMUNE||VVIC817002|||||Si|38.624650|15.865553|Riqualificazione energetica Scuola Elementare|Dato in raccolta||0,0000|134505,2100
Fondo Kyoto - D.L. 91/2014|Calabria|Vibo Valentia|Ricadi|102030|Ministero dell`Ambiente e della Tutela del Territorio e del Mare|2017-05-30|||Ricadi|COMUNE|1020300382|VVIC817002|VVMM817013|SCUOLA MEDIA GIOVANNI XXIII|||No|38.662030|15.865753|Riqualificazione energetica Scuola Media e dell` Infanzia|Dato in raccolta||0,0000|143976,2000
Fondo Kyoto - D.L. 91/2014|Calabria|Vibo Valentia|San Costantino Calabro|102033|Ministero dell`Ambiente e della Tutela del Territorio e del Mare|2017-05-30|||San Costantino|COMUNE|1020330698|VVIC81200V|VVEE812011|CAPOLUOGO (S.COSTANTINO C.)|||No|38.633227|16.074219|Riqualificazione energetica della Scuola Elementare|Start||0,0000|122830,0000
Fondo Kyoto - D.L. 91/2014|Calabria|Vibo Valentia|San Costantino Calabro|102033|Ministero dell`Ambiente e della Tutela del Territorio e del Mare|2017-05-30|||San Costantino|COMUNE|1020330969|VVIC81200V|VVMM81201X|SAN COSTANTINO C.|||No|38.632848|16.075221|Riqualificazione energetica dell`Istituto Comprensivo  Enotrio Pugliese|Start||0,0000|139497,0000
Fondo Kyoto - D.L. 91/2014|Calabria|Vibo Valentia|Sorianello|102039|Ministero dell`Ambiente e della Tutela del Territorio e del Mare|2017-05-30|||Sorianello|COMUNE|1020390996|VVIC81500A|VVMM81502C|V. TIGANI|||No|38.593299|16.230692|Riqualificazione della Scuola Media  V  Tigani|Cantiere aperto|J59D16001210001|0,0000|124308,6400
Fondo Kyoto - D.L. 91/2014|Piemonte|Verbano-Cusio-Ossola|Cannero Riviera|103016|Ministero dell`Ambiente e della Tutela del Territorio e del Mare|2017-05-30|||Cannero Riviera|COMUNE|1030160003|VBIC80300B|VBAA80303A|SC. MATERNA "LAURA MANTEGAZZA"|||No|46.020972|8.679868|Efficientamento energetico Scuola Materna  Denise Henke|Dato in raccolta||0,0000|360000,0000
Fondo Kyoto - D.L. 91/2014|Lombardia|Monza e della Brianza|Varedo|108045|Ministero dell`Ambiente e della Tutela del Territorio e del Mare|2017-05-30|||Varedo|COMUNE|1080451396|MIIC87100D|MIMM87101E|MARIA GAETANA AGNESI|||No|45.599127|9.153167|Multi-intervento finalizzato alla riqualificazione energetica dell`edificio della Scuola secondaria di primo grado M G  Agnese|Dato in raccolta||0,0000|1093805,3100
Fondo Kyoto - D.L. 91/2014|Marche|Fermo|Montegiorgio|109017|Ministero dell`Ambiente e della Tutela del Territorio e del Mare|2017-05-30|||Montegiorgio|COMUNE|1090170168|APIC82600X|APEE826056|PRIMARIA PIANE DI MONTEGIORGIO|||No|43.112010|13.563721|Riqualificazione Scuola Infanzia e Primaria Piano di Montegiorgio|Dato in raccolta||0,0000|268096,8600
Fondo Kyoto - D.L. 91/2014|Puglia|Barletta-Andria-Trani|Barletta|110002|Ministero dell`Ambiente e della Tutela del Territorio e del Mare|2017-05-30|||Barletta|COMUNE|1100021195|BAEE063001|BAEE063012|"G.MODUGNO" - V CD|||No|41.322937|16.269594|Intervento di efficientamento energetico della scuola  G Modugno  di Barletta|Start||0,0000|983435,4300
